[
    {
        "title": "Вінниця",
        "value": "VN",
        "center": {
            "lat": 49.232269,
            "lng": 28.469249
        },
        "zoom": 13
    },
    {
        "title": "Дніпро",
        "value": "DP",
        "center": {
            "lat": 48.468587,
            "lng": 35.050473
        },
        "zoom": 12
    },
    {
        "title": "Донецьк",
        "value": "DT",
        "center": {
            "lat": 48.018056,
            "lng": 37.788291
        },
        "zoom": 12
    },
    {
        "title": "Житомир",
        "value": "ZT",
        "center": {
            "lat": 50.255574,
            "lng": 28.656892
        },
        "zoom": 13
    },
    {
        "title": "Запоріжжя",
        "value": "ZP",
        "center": {
            "lat": 47.838039,
            "lng": 35.140331
        },
        "zoom": 12
    },
    {
        "title": "Івано-Франківськ",
        "value": "IF",
        "center": {
            "lat": 48.924611,
            "lng": 24.701334
        },
        "zoom": 13
    },
    {
        "title": "Київ",
        "value": "KV",
        "center": {
            "lat": 50.448287,
            "lng": 30.522876
        },
        "zoom": 11
    },
    {
        "title": "Кропивницький",
        "value": "KP",
        "center": {
            "lat": 48.507827,
            "lng": 32.258919
        },
        "zoom": 12
    },
    {
        "title": "Луганськ",
        "value": "LG",
        "center": {
            "lat": 48.565894,
            "lng": 39.331553
        },
        "zoom": 12
    },
    {
        "title": "Луцьк",
        "value": "LK",
        "center": {
            "lat": 50.746865,
            "lng": 25.325465
        },
        "zoom": 13
    },
    {
        "title": "Львів",
        "value": "LV",
        "center": {
            "lat": 49.843915,
            "lng": 24.023596
        },
        "zoom": 13
    },
    {
        "title": "Миколаїв",
        "value": "MK",
        "center": {
            "lat": 46.960167,
            "lng": 32.024469
        },
        "zoom": 12
    },
    {
        "title": "Одеса",
        "value": "OD",
        "center": {
            "lat": 46.4684,
            "lng": 30.728946
        },
        "zoom": 12
    },
    {
        "title": "Полтава",
        "value": "PT",
        "center": {
            "lat": 49.590007,
            "lng": 34.55037
        },
        "zoom": 13
    },
    {
        "title": "Рівне",
        "value": "RV",
        "center": {
            "lat": 50.619576,
            "lng": 26.254122
        },
        "zoom": 14
    },
    {
        "title": "Сімферополь",
        "value": "SF",
        "center": {
            "lat": 44.947506,
            "lng": 34.102345
        },
        "zoom": 14
    },
    {
        "title": "Суми",
        "value": "SM",
        "center": {
            "lat": 50.906707,
            "lng": 34.805972
        },
        "zoom": 14
    },
    {
        "title": "Тернопіль",
        "value": "TR",
        "center": {
            "lat": 49.550784,
            "lng": 25.60316
        },
        "zoom": 13
    },
    {
        "title": "Ужгород",
        "value": "UZ",
        "center": {
            "lat": 48.621079,
            "lng": 22.29749
        },
        "zoom": 12
    },
    {
        "title": "Харків",
        "value": "KA",
        "center": {
            "lat": 49.98921,
            "lng": 36.239812
        },
        "zoom": 11
    },
    {
        "title": "Херсон",
        "value": "KE",
        "center": {
            "lat": 46.652143,
            "lng": 32.609153
        },
        "zoom": 12
    },
    {
        "title": "Хмельницький",
        "value": "KM",
        "center": {
            "lat": 49.423708,
            "lng": 26.98324
        },
        "zoom": 12
    },
    {
        "title": "Черкаси",
        "value": "CK",
        "center": {
            "lat": 49.424949,
            "lng": 32.067263
        },
        "zoom": 12
    },
    {
        "title": "Чернівці",
        "value": "CV",
        "center": {
            "lat": 48.291035,
            "lng": 25.937733
        },
        "zoom": 14
    },
    {
        "title": "Чернігів",
        "value": "CH",
        "center": {
            "lat": 51.49811,
            "lng": 31.289163
        },
        "zoom": 12
    }
]